City_ID,City,Lat,Lng,Max Temp,Humidity,Cloudiness,Wind Speed,Country,Date
0,talnakh,69.4865,88.3972,251.99,97,99,2.57,RU,1736375547
1,edinburgh of the seven seas,-37.0676,-12.3116,290.71,98,88,4.66,SH,1736375549
2,saipan,15.1355,145.701,300.54,85,75,5.66,MP,1736375550
3,pathein,16.7833,94.7333,291.71,86,4,2.56,MM,1736375551
4,dzhalagash,45.0833,64.6667,265.34,69,3,3.68,KZ,1736375552
5,invercargill,-46.4,168.35,287.6,77,94,0.89,NZ,1736375419
6,aasiaat,68.7098,-52.8699,266.38,92,100,5.57,GL,1736375556
7,kingston,17.997,-76.7936,301.68,70,20,3.09,JM,1736375515
8,port-aux-francais,-49.35,70.2167,279.03,93,44,9.27,TF,1736375558
9,tazovsky,67.4667,78.7,243.09,100,48,0.91,RU,1736375559
10,hawaiian paradise park,19.5933,-154.9731,301.41,71,40,4.12,US,1736375560
11,sinabang,2.4803,96.3801,298.93,84,79,1.74,ID,1736375562
12,tiksi,71.6872,128.8694,250.44,95,100,6.34,RU,1736375563
13,udachny,66.4167,112.4,255.6,93,100,1.62,RU,1736375564
14,port douglas,-16.4833,145.4667,301.07,71,26,3.18,AU,1736375565
15,bubaque,11.2833,-15.8333,298.52,74,100,5.19,GW,1736375566
16,selfoss,63.9331,-20.9971,259.65,79,0,2.99,IS,1736375568
17,flying fish cove,-10.4217,105.6791,298.97,94,75,3.09,CX,1736375570
18,jamestown,42.097,-79.2353,264.83,80,100,4.63,US,1736375354
19,olonkinbyen,70.9221,-8.7187,267.9,65,90,5.74,SJ,1736375572
20,bethel,41.3712,-73.414,267.6,52,0,6.69,US,1736375303
21,grytviken,-54.2811,-36.5092,280.68,57,43,1.81,GS,1736375575
22,west island,-12.1568,96.8225,300.14,83,45,4.63,CC,1736375576
23,plastun,44.7561,136.2939,254.18,65,77,5.58,RU,1736375577
24,mahina,-17.5065,-149.489,304.02,66,20,4.12,PF,1736375578
25,tsiombe,-25.3,45.4833,298.46,87,42,1.3,MG,1736375579
26,alice springs,-23.7,133.8833,305.9,25,75,2.57,AU,1736375580
27,berriane,32.8265,3.7669,283.75,38,38,4.49,DZ,1736375582
28,naracoorte,-36.9579,140.7383,296.73,42,100,3.64,AU,1736375583
29,iqaluit,63.7506,-68.5145,251.31,76,75,13.89,CA,1736375584
30,nadi,-17.8,177.4167,302.15,61,75,6.69,FJ,1736375585
31,lazaro cardenas,17.9583,-102.2,301.04,64,17,3.58,MX,1736375586
32,kasempa,-13.4584,25.8338,290.62,93,92,2.43,ZM,1736375587
33,nuuk,64.1835,-51.7216,269.49,74,75,8.23,GL,1736375588
34,hithadhoo,-0.6,73.0833,300.41,76,30,1.45,MV,1736375590
35,hamilton,39.1834,-84.5333,269.13,72,100,4.63,US,1736375414
36,port elizabeth,-33.918,25.5701,291.66,95,0,3.09,ZA,1736375592
37,hermiston,45.8404,-119.2895,280.51,73,0,2.57,US,1736375593
38,anadyr,64.75,177.4833,246.43,76,40,2.0,RU,1736375594
39,hirara,24.8,125.2833,290.07,72,75,9.26,JP,1736375595
40,goroka,-6.0834,145.3873,293.39,85,100,0.27,PG,1736375596
41,labrador city,52.9463,-66.9114,269.92,86,100,14.75,CA,1736375598
42,kikvidze,50.7416,43.0518,276.36,83,100,7.03,RU,1736375534
43,amahai,-3.3333,128.9167,300.51,77,73,1.62,ID,1736375600
44,lata,40.1629,-8.3327,283.74,98,91,2.17,PT,1736375601
45,guasdualito,7.2424,-70.7324,305.13,55,20,1.54,VE,1736375602
46,igarra,7.2827,6.0878,298.21,19,7,1.32,NG,1736375603
47,port blair,11.6667,92.75,300.17,78,40,0.51,IN,1736375604
48,adamstown,-25.066,-130.1015,297.01,81,100,11.54,PN,1736375606
49,qaqortoq,60.7167,-46.0333,262.87,72,98,2.97,GL,1736375352
50,cam ranh,11.9214,109.1591,296.13,68,0,2.57,VN,1736375608
51,namibe,-15.1961,12.1522,294.48,79,100,1.8,AO,1736375609
52,la passe,45.5549,-0.8967,286.34,80,86,13.36,FR,1736375610
53,kokpekty,48.75,82.4,263.2,91,100,2.74,KZ,1736375611
54,st. john's,47.5649,-52.7093,274.8,94,75,5.14,CA,1736375519
55,waitangi,-43.9535,-176.5597,289.72,73,29,3.13,NZ,1736375615
56,pico truncado,-46.7949,-67.9573,295.27,20,6,13.06,AR,1736375616
57,vorgashor,67.5833,63.95,245.28,100,99,2.84,RU,1736375617
58,codrington,-38.2667,141.9667,295.34,48,100,1.64,AU,1736375618
59,georgetown,5.4112,100.3354,300.11,77,20,3.09,MY,1736375406
60,dudinka,69.4058,86.1778,244.38,100,91,2.22,RU,1736375621
61,nar'yan-mar,67.6713,53.087,256.02,92,100,6.67,RU,1736375622
62,blackmans bay,-43.0167,147.3167,292.33,68,100,1.62,AU,1736375623
63,valparaiso,-33.0393,-71.6273,296.28,49,0,6.17,CL,1736375621
64,bredasdorp,-34.5322,20.0403,290.43,82,0,2.03,ZA,1736375625
65,hadibu,12.65,54.0333,295.76,70,37,4.45,YE,1736375626
66,albany,42.6001,-73.9662,265.73,69,86,4.92,US,1736375338
67,kapuskasing,49.4169,-82.4331,253.2,65,0,2.57,CA,1736375629
68,hilo,19.7297,-155.09,301.53,75,40,4.12,US,1736375630
69,ilulissat,69.2167,-51.1,267.16,73,75,4.12,GL,1736375631
70,lokoja,7.8024,6.743,299.48,18,5,1.07,NG,1736375632
71,newman,37.3138,-121.0208,289.28,43,12,0.89,US,1736375633
72,laguna,38.421,-121.4238,290.43,50,0,0.89,US,1736375416
73,cabanas,22.9758,-82.9219,291.89,68,62,5.1,CU,1736375636
74,tambacounda,13.7539,-13.7586,300.18,32,0,3.09,SN,1736375622
75,dhanwar,24.4167,85.9833,282.7,54,0,1.13,IN,1736375639
76,malpica,43.3228,-8.8105,288.28,100,61,10.12,ES,1736375640
77,stanley,54.868,-1.6985,268.44,85,0,1.03,GB,1736375641
78,bac ninh,21.1833,106.05,290.2,54,98,1.96,VN,1736375642
79,puerto natales,-51.7236,-72.4875,283.4,53,75,10.29,CL,1736375599
80,ghanzi,-21.5667,21.7833,295.46,74,100,2.8,BW,1736375645
81,abepura,-2.6333,140.5833,298.6,100,40,0.51,ID,1736375646
82,atafu village,-8.5421,-172.5159,300.85,73,100,8.81,TK,1736375648
83,puerto ayora,-0.7393,-90.3518,297.9,94,81,0.89,EC,1736375649
84,ranam,41.7136,129.6844,257.82,40,6,3.91,KP,1736375651
85,gorontalo,0.5412,123.0595,297.58,95,61,1.32,ID,1736375652
86,lebu,-37.6167,-73.65,290.36,83,0,5.48,CL,1736375653
87,hammerfest,70.6634,23.6821,265.4,45,0,7.72,NO,1736375559
88,bilibino,68.0546,166.4372,238.24,99,11,0.5,RU,1736375655
89,puerto armuelles,8.2833,-82.8667,298.76,81,97,0.45,PA,1736375656
90,port mathurin,-19.6833,63.4167,299.54,85,21,9.19,MU,1736375658
91,kodiak,57.79,-152.4072,275.88,100,100,5.14,US,1736375532
92,santa elena de uairen,4.6167,-61.1333,295.93,50,19,0.83,VE,1736375660
93,tralee,52.2704,-9.7026,270.2,98,32,0.96,IE,1736375661
94,tofol,5.3248,163.0078,300.82,81,18,8.7,FM,1736375662
95,san fernando,15.0286,120.6898,298.0,89,90,2.39,PH,1736375663
96,avarua,-21.2078,-159.775,302.18,84,75,8.75,CK,1736375664
97,toba,34.4833,136.85,278.74,79,23,8.4,JP,1736375666
98,thames,-37.1333,175.5333,295.45,56,31,1.78,NZ,1736375667
99,lake havasu city,34.4839,-114.3224,293.83,18,0,10.8,US,1736375668
100,barkhan,29.8977,69.5256,280.69,32,38,1.01,PK,1736375669
101,kailua-kona,19.6406,-155.9956,301.08,69,20,4.12,US,1736375455
102,midvagur,62.0511,-7.1939,274.61,64,75,10.29,FO,1736375671
103,holualoa,19.6228,-155.9522,298.63,70,20,4.12,US,1736375673
104,ushuaia,-54.8,-68.3,281.96,81,75,14.92,AR,1736375526
105,la sarre,48.8002,-79.1996,253.58,93,100,4.95,CA,1736375675
106,upington,-28.4478,21.2561,297.36,23,2,4.63,ZA,1736375676
107,vilyuchinsk,52.9306,158.4028,266.3,83,99,2.42,RU,1736375677
108,kafue,-15.7691,28.1814,292.58,94,100,1.35,ZM,1736375678
109,keflavik,64.0049,-22.5624,267.39,53,0,2.06,IS,1736375679
110,lhokseumawe,5.1801,97.1507,297.26,87,100,1.36,ID,1736375681
111,celestun,20.8667,-90.4,295.74,70,0,8.1,MX,1736375682
112,punta arenas,-53.15,-70.9167,285.21,43,40,13.38,CL,1736375676
113,badger,64.8,-147.5333,261.08,84,75,0.0,US,1736375537
114,akureyri,65.6835,-18.0878,260.11,78,40,4.63,IS,1736375685
115,acapulco de juarez,16.8634,-99.8901,302.05,74,0,5.14,MX,1736375602
116,guiuan,11.0333,125.7247,300.41,80,65,3.43,PH,1736375688
117,yellowknife,62.456,-114.3525,256.44,78,75,8.75,CA,1736375689
118,magadan,59.5667,150.8,257.18,71,26,3.87,RU,1736375690
119,port hedland,-20.3167,118.5667,302.18,65,100,2.57,AU,1736375691
120,ust'-uda,54.1742,103.0304,246.97,100,37,0.79,RU,1736375592
121,barda,40.3744,47.1267,276.98,70,5,1.57,AZ,1736375694
122,ribeira grande,38.5167,-28.7,292.47,88,75,11.62,PT,1736375696
123,tromso,69.6496,18.957,267.16,68,0,5.14,NO,1736375677
124,sitka,57.0531,-135.33,279.22,92,100,2.54,US,1736375698
125,tomatlan,19.9333,-105.25,300.79,44,99,1.38,MX,1736375699
126,la mira,18.035,-102.3266,300.77,63,17,3.45,MX,1736375700
127,enewetak,11.3474,162.3373,300.68,83,28,8.95,MH,1736375702
128,xiulin,29.7167,112.4,278.37,30,100,4.24,CN,1736375703
129,mount vernon,40.9126,-73.8371,269.65,49,3,8.49,US,1736375344
130,whitehorse,60.7161,-135.0538,269.58,79,20,3.6,CA,1736375705
131,bandarbeyla,9.4942,50.8122,297.01,69,57,8.56,SO,1736375706
132,petropavlovsk-kamchatsky,53.0452,158.6483,265.48,58,40,1.0,RU,1736375707
133,ratchaburi,13.5833,99.5333,292.87,69,57,1.56,TH,1736375709
134,porto novo,6.4965,2.6036,301.05,86,13,2.63,BJ,1736375710
135,sihanoukville,10.6093,103.5296,295.12,94,99,1.54,KH,1736375711
136,la tuque,47.4334,-72.7824,262.29,73,100,5.14,CA,1736375712
137,cochin,9.9399,76.2602,296.14,84,50,2.28,IN,1736375713
138,kudahuvadhoo,2.6708,72.8944,300.79,74,29,4.85,MV,1736375714
139,new norfolk,-42.7826,147.0587,292.99,41,100,1.18,AU,1736375716
140,uacu cungo,-11.3634,15.1208,288.91,97,61,0.93,AO,1736375717
141,ust-nera,64.5667,143.2,239.57,98,96,1.2,RU,1736375718
142,laayoune,27.1622,-13.2032,291.34,63,100,5.14,EH,1736375719
143,tionk essil,12.7856,-16.5217,297.71,37,38,2.1,SN,1736375720
144,college,64.8569,-147.8028,261.12,68,75,0.0,US,1736375721
145,chui,-33.6971,-53.4616,291.21,78,0,3.32,UY,1736375722
146,broken hill,-31.95,141.4333,302.49,26,81,8.26,AU,1736375725
147,bamboo flat,11.7,92.7167,300.2,78,40,0.51,IN,1736375726
148,ar ruways,24.1103,52.7306,290.87,63,1,5.67,AE,1736375727
149,san antonio de pale,-1.4014,5.6325,299.67,83,48,2.51,GQ,1736375728
150,uige,-7.6087,15.0613,292.25,99,96,0.62,AO,1736375730
151,fort bragg,35.139,-79.006,277.06,41,0,3.09,US,1736375731
152,cockburn town,21.4612,-71.1419,297.64,78,61,6.47,TC,1736375596
153,birobidzhan,48.8,132.95,259.28,93,100,1.31,RU,1736375733
154,kerikeri,-35.2268,173.9474,296.15,48,21,2.23,NZ,1736375734
155,saudarkrokur,65.7461,-19.6394,259.56,90,18,5.91,IS,1736375735
156,portel,-1.9356,-50.8211,297.42,94,88,1.69,BR,1736375737
157,utrik,11.2278,169.8474,299.97,84,7,9.5,MH,1736375738
158,erdenet,49.0333,104.0833,250.72,100,43,1.05,MN,1736375739
159,halden,59.1226,11.3871,262.11,98,63,1.41,NO,1736375740
160,kununurra,-15.7667,128.7333,301.14,89,51,1.03,AU,1736375589
161,zapala,-38.8992,-70.0544,298.84,19,0,10.6,AR,1736375742
162,sabang,5.8933,95.3214,300.3,76,84,5.12,ID,1736375743
163,tatsinskiy,48.1968,41.2756,276.48,72,91,5.08,RU,1736375745
164,howrah,22.5892,88.3103,287.15,88,0,3.6,IN,1736375746
165,al qadarif,14.0349,35.3834,296.71,33,7,4.1,SD,1736375747
166,luderitz,-26.6481,15.1594,289.31,79,1,7.32,NA,1736375748
167,essaouira,31.5125,-9.77,286.87,76,3,1.03,MA,1736375749
168,zheshart,62.0731,49.5733,269.16,95,100,4.29,RU,1736375752
169,smithers,54.7804,-127.1743,274.33,100,100,2.06,CA,1736375753
170,hasaki,35.7333,140.8333,280.49,54,9,6.52,JP,1736375754
171,hami,42.8,93.45,266.64,59,17,2.94,CN,1736375755
172,arno,60.1167,18.6333,273.86,99,100,2.91,SE,1736375756
173,thompson,55.7435,-97.8558,264.24,92,100,2.57,CA,1736375758
174,el jadid,33.2549,-8.506,287.54,82,3,3.91,MA,1736375759
175,rongelap,11.1635,166.8941,300.54,81,12,10.05,MH,1736375760
176,sao vicente,-23.9631,-46.3919,294.81,26,100,4.73,BR,1736375761
177,naberezhnyye chelny,55.7561,52.4289,273.64,93,100,8.9,RU,1736375762
178,isafjordur,66.0755,-23.124,263.61,70,0,3.55,IS,1736375763
179,yanchep,-31.55,115.6833,290.92,65,17,1.85,AU,1736375764
180,iwaki,37.05,140.8833,277.77,46,8,4.79,JP,1736375730
181,tirhanimine,35.2362,-3.9545,287.57,57,60,1.37,MA,1736375767
182,imbituba,-28.24,-48.6703,294.21,77,99,3.39,BR,1736375768
183,jinchang,38.4953,102.1739,266.3,49,60,2.33,CN,1736375769
184,kavieng,-2.5744,150.7967,302.19,72,74,3.34,PG,1736375770
185,victoria,22.2855,114.1577,289.4,76,30,4.47,HK,1736375674
186,mana,5.6592,-53.7767,297.92,80,93,3.77,GF,1736375772
187,busselton,-33.65,115.3333,289.43,63,90,4.15,AU,1736375774
188,sault ste. marie,46.5168,-84.3333,259.31,43,0,2.57,CA,1736375775
189,afaahiti,-17.75,-149.2833,299.63,75,70,5.14,PF,1736375776
190,lompoc,34.6391,-120.4579,293.55,27,0,4.12,US,1736375777
191,nova sintra,14.8667,-24.7167,296.93,72,0,8.48,CV,1736375778
192,santee,32.8384,-116.9739,296.35,21,0,6.17,US,1736375588
193,wenling,28.3669,121.36,278.39,62,85,6.93,CN,1736375781
194,westport,41.1415,-73.3579,268.89,50,15,5.81,US,1736375717
195,longyearbyen,78.2186,15.6401,269.06,74,75,6.69,SJ,1736375783
196,lyuban',52.7985,28.0048,274.59,77,100,5.85,BY,1736375784
197,sarandi grande,-33.7333,-56.3333,298.27,35,1,7.02,UY,1736375785
198,mejit,10.2753,170.8646,300.07,79,46,10.71,MH,1736375786
199,revda,56.801,59.9303,270.59,92,100,5.75,RU,1736375788
200,wenshui,28.4506,106.5267,275.23,100,100,0.22,CN,1736375789
201,lisala,2.15,21.5167,296.43,62,77,1.01,CD,1736375790
202,wailua homesteads,22.0669,-159.378,297.51,86,100,0.89,US,1736375791
203,topsham,43.9276,-69.9759,264.66,64,100,3.58,US,1736375792
204,inarajan village,13.2736,144.7484,300.59,88,24,7.1,GU,1736375793
205,quellon,-43.1167,-73.6167,286.72,70,94,5.22,CL,1736375795
206,kruisfontein,-34.0033,24.7314,288.84,89,0,2.09,ZA,1736375796
207,mount isa,-20.7333,139.5,302.02,54,17,2.57,AU,1736375797
208,vitorino freire,-4.0667,-45.1667,298.41,85,100,2.1,BR,1736375798
209,carnarvon,-24.8667,113.6333,297.97,59,57,8.95,AU,1736375799
210,hastings,50.8552,0.5729,274.7,60,100,10.23,GB,1736375802
211,coahuayana de hidalgo,18.7,-103.6583,301.33,62,80,2.28,MX,1736375803
212,xining,36.6167,101.7667,261.64,90,19,1.27,CN,1736375804
213,kirensk,57.7853,108.1119,242.81,100,43,0.74,RU,1736375591
214,mil'kovo,55.6078,37.7956,275.56,87,100,3.41,RU,1736375806
215,puerto cabezas,14.0351,-83.3888,302.13,74,40,11.32,NI,1736375809
216,mugia,43.1041,-9.2179,288.66,83,58,12.31,ES,1736375810
217,rangapara,26.8167,92.65,284.57,83,1,2.26,IN,1736375811
218,weno,7.4515,151.8468,302.12,79,75,4.12,FM,1736375812
219,mtama,-10.3,39.3667,295.95,98,73,0.9,TZ,1736375813
220,trairi,-3.2778,-39.2689,299.58,80,82,3.89,BR,1736375707
221,porto seguro,-16.4497,-39.0647,299.44,89,20,5.14,BR,1736375715
222,crestview,30.7621,-86.5705,282.09,47,0,5.66,US,1736375817
223,paka,4.6374,103.4368,297.11,88,100,0.0,MY,1736375818
224,tuburan,6.6439,122.2736,299.76,76,80,0.77,PH,1736375819
225,mananara,-16.1667,49.7667,297.0,93,19,1.72,MG,1736375820
226,grand falls-windsor,48.9332,-55.6649,273.43,92,82,0.6,CA,1736375821
227,ola,59.5833,151.2833,256.07,74,16,4.3,RU,1736375591
228,hermanus,-34.4187,19.2345,291.1,84,3,2.35,ZA,1736375824
229,eureka,40.8021,-124.1637,288.82,78,14,0.45,US,1736375825
230,loukhi,66.0764,33.0381,260.53,93,100,5.27,RU,1736375826
231,naze,28.3667,129.4833,286.66,56,34,6.49,JP,1736375827
232,belyy yar,53.6039,91.3903,256.09,92,100,0.0,RU,1736375828
233,san rafael del sur,11.8485,-86.4384,302.32,51,73,5.88,NI,1736375829
234,tuy hoa,13.0833,109.3,292.54,94,98,1.52,VN,1736375831
235,sevlievo,43.0258,25.1136,282.33,71,5,1.47,BG,1736375832
236,crane,31.3974,-102.3501,277.5,23,89,3.28,US,1736375833
237,port lincoln,-34.7333,135.8667,294.6,63,35,3.28,AU,1736375773
238,petawawa,45.9001,-77.3328,260.92,75,75,5.66,CA,1736375835
239,duba,27.3513,35.6901,291.61,37,100,3.68,SA,1736375836
240,dunedin,-45.8742,170.5036,284.85,84,99,1.62,NZ,1736375838
241,san patricio,28.017,-97.5169,281.12,43,100,5.32,US,1736375839
242,acajutla,13.5928,-89.8275,302.46,63,23,3.78,SV,1736375840
243,dzilam gonzalez,21.2833,-88.9333,295.02,69,25,3.2,MX,1736375841
244,laibin,23.7,109.2667,284.26,53,98,4.32,CN,1736375842
245,nereta,56.2066,25.313,272.24,92,91,4.29,LV,1736375843
246,bhabhua,25.05,83.6167,281.19,54,0,1.24,IN,1736375845
247,senanga,-16.1167,23.2667,291.54,93,84,2.42,ZM,1736375846
248,constantia,44.1833,28.65,281.53,77,18,3.05,RO,1736375702
249,tura,25.5198,90.2201,283.81,71,0,1.16,IN,1736375848
250,alappuzha,9.49,76.3264,297.75,84,47,3.19,IN,1736375849
251,papatowai,-46.5619,169.4708,285.49,78,97,2.42,NZ,1736375851
252,nemuro,43.3236,145.575,270.76,63,4,14.4,JP,1736375852
253,tombodu,8.1333,-10.6167,294.96,46,88,0.89,SL,1736375853
254,ghadamis,30.1337,9.5007,282.39,55,0,0.18,LY,1736375854
255,nizhneudinsk,54.9076,99.0276,261.65,94,100,1.08,RU,1736375855
256,asau,46.4333,26.4,282.57,66,100,9.25,RO,1736375856
257,gorodovikovsk,46.0878,41.9335,279.03,55,99,2.71,RU,1736375858
258,san angelo,31.4638,-100.437,276.27,41,40,3.6,US,1736375859
259,khovd,48.0056,91.6419,258.79,94,100,0.54,MN,1736375860
260,moroto,2.5345,34.6666,295.59,33,33,3.25,UG,1736375861
261,nicoya,10.1483,-85.452,298.31,81,93,5.23,CR,1736375862
262,qaryat suluq,31.6682,20.2521,287.63,67,99,2.49,LY,1736375604
263,dawei,14.0833,98.2,293.97,76,5,1.53,MM,1736375864
264,tolanaro,-25.0319,46.9987,300.19,78,75,0.0,MG,1736375866
265,puerto baquerizo moreno,-0.9,-89.6,299.7,74,75,5.14,EC,1736375867
266,mayqayyng,51.4625,75.7986,258.93,76,94,8.42,KZ,1736375868
267,preobrazheniye,42.9019,133.9064,256.63,61,17,4.31,RU,1736375869
268,parabel',58.6978,81.4825,263.28,92,100,6.76,RU,1736375870
269,posto fiscal rolim de moura,-13.0833,-62.2667,297.05,94,100,0.59,BR,1736375871
270,okha,53.5739,142.9478,269.17,89,100,6.6,RU,1736375873
271,sao gabriel da cachoeira,-0.1303,-67.0892,300.18,73,93,0.46,BR,1736375874
272,tarariras,-34.2833,-57.6167,296.66,44,63,6.06,UY,1736375875
273,meru,0.0463,37.6559,289.23,76,73,1.68,KE,1736375876
274,lionel town,17.8101,-77.2406,298.1,78,65,1.56,JM,1736375877
275,barkot,30.8167,78.2,277.67,31,0,1.8,IN,1736375878
276,kez,57.8979,53.7152,273.77,96,100,5.87,RU,1736375879
277,aioun,16.6614,-9.6149,294.76,16,3,5.24,MR,1736375881
278,vanimo,-2.6741,141.3028,300.35,84,100,0.87,PG,1736375882
279,lae,-6.7221,146.9847,300.84,69,97,2.8,PG,1736375883
280,hanceville,34.0607,-86.7675,276.02,54,4,4.26,US,1736375884
281,pemba,-12.974,40.5178,300.02,81,95,4.69,MZ,1736375885
282,usinsk,65.9939,57.5281,254.35,91,100,4.78,RU,1736375886
283,angra do heroismo,38.65,-27.2167,292.49,82,75,11.06,PT,1736375888
284,nizhniy kuranakh,58.8353,125.4869,237.68,100,31,1.07,RU,1736375891
285,isabel segunda,18.1491,-65.4427,297.42,73,91,5.64,PR,1736375892
286,uturoa,-16.7333,-151.4333,300.93,70,52,4.16,PF,1736375893
287,freetown,8.484,-13.2299,298.46,84,36,2.3,SL,1736375894
288,okhotsk,59.3833,143.3,252.69,77,48,4.51,RU,1736375896
289,santiago de cao,-7.9589,-79.2392,292.22,88,99,5.66,PE,1736375897
290,mindelo,16.8901,-24.9804,294.9,68,0,7.2,CV,1736375899
291,matias barbosa,-21.8692,-43.3194,293.01,98,37,2.48,BR,1736375900
292,keetmanshoop,-26.5833,18.1333,295.38,30,31,4.29,NA,1736375901
293,bikenibeu village,1.3673,173.1241,302.13,70,40,4.12,KI,1736375903
294,lerwick,60.1545,-1.1494,276.91,69,100,9.59,GB,1736375904
295,minas de marcona,-15.2119,-75.1103,291.16,73,86,6.77,PE,1736375905
296,itapecuru mirim,-3.3925,-44.3586,297.04,96,91,1.71,BR,1736375689
297,east london,-33.0153,27.9116,292.75,82,21,2.13,ZA,1736375612
298,richards bay,-28.783,32.0377,294.98,85,100,2.83,ZA,1736375908
299,kingscliff,-28.2667,153.5667,301.45,78,20,1.54,AU,1736375909
300,remire-montjoly,4.9167,-52.2667,300.17,78,40,4.12,GF,1736375734
301,swift current,50.2834,-107.8014,274.6,86,100,10.29,CA,1736375912
302,warmbad,-28.45,18.7333,294.43,38,0,5.85,NA,1736375913
303,broome,42.2506,-75.833,265.11,74,100,5.14,US,1736375914
304,baharly,38.4362,57.4316,274.69,57,0,4.36,TM,1736375916
305,elverum,60.8819,11.5623,263.41,95,97,1.85,NO,1736375918
306,catumbela,-12.4314,13.5472,297.11,82,88,1.4,AO,1736375919
307,pangai,-19.8,-174.35,301.21,65,75,5.14,TO,1736375920
308,trenton,40.217,-74.7429,270.93,42,0,4.47,US,1736375921
309,moultonborough,43.7548,-71.3967,262.49,67,88,9.83,US,1736375922
310,genhe,50.7833,121.5167,248.89,98,98,0.89,CN,1736375923
311,bad langensalza,51.1,10.65,275.34,96,100,3.1,DE,1736375925
312,pelabuhanratu,-6.9875,106.5514,298.9,80,100,1.18,ID,1736375926
313,karamay,45.6004,84.8661,270.36,55,88,9.07,CN,1736375927
314,vorkuta,67.5,64.0,244.76,100,99,2.72,RU,1736375673
315,ilhabela,-23.7781,-45.3581,296.43,90,93,3.67,BR,1736375929
316,bonthe,7.5264,-12.505,299.08,87,5,3.24,SL,1736375930
317,jeremie,18.65,-74.1167,296.98,83,85,3.14,HT,1736375932
318,akjoujt,19.6969,-14.4164,293.93,14,0,5.6,MR,1736375933
319,jaral del progreso,20.3667,-101.0667,294.49,44,85,2.4,MX,1736375934
320,haimen,23.1935,116.6142,285.3,83,39,2.46,CN,1736375935
321,chonchi,-42.6128,-73.8092,289.33,65,99,1.31,CL,1736375937
322,kargasok,59.0556,80.8572,263.16,93,100,6.77,RU,1736375938
323,uribia,11.7139,-72.266,302.38,56,25,6.23,CO,1736375939
324,sandnessjoen,66.0217,12.6316,270.21,63,75,1.03,NO,1736375940
325,laojunmiao,39.8333,97.7333,263.74,62,7,1.81,CN,1736375941
326,santiago de cuba,20.0247,-75.8219,300.21,69,40,5.66,CU,1736375838
327,auki,-8.7676,160.7034,302.03,73,71,3.89,SB,1736375945
328,korla,41.7597,86.1469,267.51,72,100,1.82,CN,1736375946
329,fortuna,40.5982,-124.1573,288.67,71,0,2.57,US,1736375947
330,juneau,58.3019,-134.4197,279.15,95,100,4.12,US,1736375948
331,sungailiat,-1.85,106.1333,299.47,85,100,4.63,ID,1736375949
332,susuman,62.7833,148.1667,237.1,95,93,0.54,RU,1736375951
333,villanueva,15.3167,-88.0,295.7,100,100,6.17,HN,1736375952
334,horta,38.5333,-28.6333,292.05,92,75,12.07,PT,1736375953
335,la'ie,21.6477,-157.9253,297.81,88,96,1.34,US,1736375954
336,montrose,38.4166,-108.2673,270.22,52,25,0.71,US,1736375955
337,hakkari,37.5833,44.1667,256.03,85,100,1.54,TR,1736375956
338,orichi,58.4036,49.0572,274.12,98,100,6.07,RU,1736375958
339,margaret river,-33.95,115.0667,287.78,68,70,3.09,AU,1736375959
340,gadzhiyevo,69.2551,33.3362,258.61,99,78,1.22,RU,1736375960
341,ambon,-3.6954,128.1814,302.52,95,95,1.81,ID,1736375961
342,tangalle,6.024,80.7911,296.28,94,3,1.83,LK,1736375962
343,lihue,21.9789,-159.3672,297.84,87,100,0.0,US,1736375963
344,vadso,70.0744,29.7487,263.24,79,75,2.57,NO,1736375964
345,xilin hot,43.9667,116.0333,251.07,93,10,1.61,CN,1736375966
346,olinda,-8.0089,-34.8553,301.0,74,40,3.6,BR,1736375967
347,seaside,36.6111,-121.8516,293.66,33,0,2.57,US,1736375968
348,kapa'a,22.0752,-159.319,298.25,86,100,0.89,US,1736375969
349,lorengau,-2.0226,147.2712,302.44,69,94,1.84,PG,1736375970
350,namtsy,62.7161,129.6658,237.5,98,100,0.21,RU,1736375971
351,barra de santo antonio,-9.4047,-35.5072,299.23,76,97,5.63,BR,1736375972
352,brookings,44.3114,-96.7984,269.36,61,0,4.63,US,1736375680
353,nagqu,31.5,92.0,259.26,26,100,0.56,CN,1736375975
354,kayangel,8.0823,134.7173,302.02,75,68,7.23,PW,1736375976
355,san luis de la loma,17.2706,-100.8939,301.22,62,0,2.39,MX,1736375977
356,kone,-21.0595,164.8658,303.67,38,98,0.82,NC,1736375980
357,furukawa,38.5717,140.9556,273.33,91,90,1.26,JP,1736375981
358,ancud,-41.8697,-73.8203,288.39,74,100,3.75,CL,1736375693
359,denkanikota,12.5333,77.8,287.84,98,8,2.68,IN,1736375983
360,sumbawa besar,-8.5,117.4333,297.7,94,98,1.38,ID,1736375984
361,algiers,36.7525,3.042,288.61,46,0,2.06,DZ,1736375985
362,altagracia de orituco,9.8601,-66.3814,297.14,63,9,2.59,VE,1736375987
363,sarankhola,22.3082,89.7897,286.22,65,0,2.32,BD,1736375988
364,egilsstadir,65.2653,-14.3948,268.1,86,100,1.03,IS,1736375989
365,copala,16.65,-98.9833,301.0,61,0,3.55,MX,1736375990
366,barranca,-10.75,-77.7667,295.1,77,97,4.28,PE,1736375991
367,gunnedah,-30.9833,150.25,296.57,54,4,3.83,AU,1736375992
368,polyarnyy,69.1989,33.4478,257.47,98,76,1.0,RU,1736375993
369,port arthur,38.8,121.2667,263.27,54,100,12.44,CN,1736375995
370,meizhou,24.2977,116.1072,280.12,58,6,1.6,CN,1736375996
371,taulaga,-11.0553,-171.0883,301.64,71,98,10.53,AS,1736375997
372,pitea,65.3172,21.4794,263.99,95,100,3.25,SE,1736375998
373,glace bay,46.1969,-59.957,271.56,85,100,7.2,CA,1736375725
374,hotan,37.0997,79.9269,272.63,36,0,2.77,CN,1736376000
375,cannonvale,-20.2833,148.7,300.81,68,25,3.35,AU,1736376002
376,chu,43.5983,73.7614,267.0,83,7,1.66,KZ,1736376003
377,saint-pierre,-21.3393,55.4781,298.97,73,0,2.06,RE,1736376004
378,konarka,19.9,86.1167,290.94,79,0,3.56,IN,1736376005
379,klyuchi,52.2667,79.1667,256.11,89,82,4.16,RU,1736376006
380,bouznika,33.7894,-7.1597,287.01,100,12,4.63,MA,1736376008
381,takoradi,4.8845,-1.7554,300.27,85,8,3.17,GH,1736376009
382,karratha,-20.7377,116.8463,304.78,58,60,2.24,AU,1736376010
383,grand-bassam,5.2118,-3.7388,302.13,85,29,3.04,CI,1736376011
384,dryden,49.7833,-92.7503,261.31,72,75,4.63,CA,1736376012
385,touros,-5.1989,-35.4608,299.67,77,83,4.2,BR,1736376013
386,santa cruz,-17.8,-63.1667,300.85,74,75,1.54,BO,1736375582
387,anloga,5.7947,0.8973,300.38,85,9,3.55,GH,1736376016
388,torrington,41.8007,-73.1212,267.67,62,19,4.47,US,1736375908
389,pariaman,-0.619,100.12,297.18,88,98,2.54,ID,1736376018
390,margate,51.3813,1.3862,275.76,85,100,1.79,GB,1736376019
391,marion,39.7684,-86.1555,269.34,60,75,5.66,US,1736375832
392,starke,29.9441,-82.1098,285.22,20,0,3.6,US,1736376021
393,timbiqui,2.7717,-77.6654,298.04,93,99,2.04,CO,1736376023
394,cabo san lucas,22.8909,-109.9124,296.9,56,20,7.2,MX,1736375916
395,port moresby,-9.4431,147.1797,300.83,83,20,2.57,PG,1736375898
396,murun-kuren,49.6342,100.1625,250.03,97,54,0.82,MN,1736376027
397,cill airne,52.05,-9.5167,269.69,98,15,0.9,IE,1736376028
398,wellington,-41.2866,174.7756,289.96,63,20,6.69,NZ,1736375594
399,kalmunai,7.4167,81.8167,297.11,89,48,3.55,LK,1736376032
400,fisterra,42.9049,-9.2629,287.91,81,59,12.26,ES,1736376033
401,coquimbo,-29.9533,-71.3436,293.0,72,75,4.63,CL,1736376034
402,tripoli,32.8752,13.1875,287.78,61,0,3.08,LY,1736376035
403,pauini,-7.7136,-66.9764,297.46,94,93,0.75,BR,1736376036
404,zakamensk,50.3741,103.2863,250.71,98,12,1.01,RU,1736376038
405,arraial do cabo,-22.9661,-42.0278,297.13,100,75,0.0,BR,1736376039
406,mende,44.6667,3.5,277.23,95,100,4.08,FR,1736376040
407,karungdong,5.8844,121.263,299.94,82,91,0.75,PH,1736376041
408,port alfred,-33.5906,26.891,290.47,93,22,2.7,ZA,1736376043
409,las heras,-46.5419,-68.9359,292.81,21,3,13.59,AR,1736376046
410,tchintabaraden,15.8969,5.7985,292.77,20,91,5.22,NE,1736376047
411,howard springs,-12.497,131.047,300.86,87,100,2.5,AU,1736376048
412,saguenay,48.4168,-71.0657,267.64,84,100,10.29,CA,1736376049
413,chibougamau,49.9168,-74.3659,258.94,85,100,5.14,CA,1736375957
414,letlhakane,-21.4167,25.5833,295.28,84,100,3.68,BW,1736376052
415,rio grande,-32.035,-52.0986,293.12,73,2,5.02,BR,1736375860
416,guanica,17.9716,-66.908,300.36,65,71,1.35,PR,1736376054
417,hede,33.7681,120.2517,268.34,52,0,3.58,CN,1736376055
418,serowe,-22.3833,26.7167,293.17,93,100,4.2,BW,1736376056
419,fereydunshahr,32.941,50.121,264.7,81,12,1.19,IR,1736376058
420,hafar al-batin,28.4328,45.9708,284.47,93,0,4.12,SA,1736376059
421,vila velha,-20.3297,-40.2925,296.45,98,75,1.03,BR,1736375713
422,madinat ash shamal,26.1293,51.2009,291.02,74,0,8.26,QA,1736376062
423,port saint john's,-31.6229,29.5448,294.33,74,33,1.23,ZA,1736376063
424,saurimo,-9.6608,20.3916,292.19,90,68,1.56,AO,1736376064
425,warrnambool,-38.3833,142.4833,294.56,50,100,0.33,AU,1736376066
426,altay,47.8667,88.1167,258.97,82,98,2.65,CN,1736376067
427,turinsk,58.0458,63.696,264.25,95,100,3.71,RU,1736376068
428,kwang binh,17.4833,106.6,293.09,92,94,1.89,VN,1736376069
429,santyoku,37.4406,129.1708,264.98,43,1,10.64,KR,1736376070
430,alesund,62.4723,6.1549,271.9,75,100,3.6,NO,1736376071
431,butha-buthe,-28.8333,28.5,283.36,72,92,1.53,LS,1736376073
432,geraldton,-28.7667,114.6,288.38,82,0,2.57,AU,1736376074
433,yangliuqing,39.1375,116.9997,266.12,29,0,4.58,CN,1736376075
434,roja,57.5,22.8167,274.94,97,100,10.15,LV,1736376076
435,forster,-32.1667,152.5167,291.69,97,100,10.15,AU,1736376077
436,kintampo,8.0563,-1.7306,300.06,16,45,0.73,GH,1736376078
437,barakani,-12.1356,44.4317,299.26,82,1,0.35,KM,1736376080
438,mahibadhoo,3.7833,72.9667,300.82,76,24,5.84,MV,1736376081
439,nova xavantina,-14.6667,-52.35,296.38,96,100,1.25,BR,1736376082
440,jiagedaqi,50.4167,124.1167,249.1,97,99,2.05,CN,1736375971
441,urucara,-2.5364,-57.76,296.75,97,100,1.96,BR,1736376084
442,ardmore,34.1743,-97.1436,278.29,37,0,0.45,US,1736376086
443,manismata,-2.4667,111.0333,296.77,98,95,0.85,ID,1736376087
444,susice,49.2311,13.5202,274.16,78,100,2.95,CZ,1736376088
445,belmonte,-15.8631,-38.8828,298.67,84,95,3.53,BR,1736376089
446,belokurikha,51.9959,84.9896,265.87,96,100,3.07,RU,1736376090
447,waldorf,38.6246,-76.9391,272.27,58,100,0.45,US,1736376054
448,oktyabr'skiy,54.4815,53.471,271.31,89,100,9.07,RU,1736376092
449,muleba,-1.8397,31.6544,292.59,72,66,2.22,TZ,1736376094
450,ust'-ilimsk,58.0006,102.6619,254.5,92,100,2.03,RU,1736376095
451,sao jose da coroa grande,-8.8978,-35.1478,299.59,73,73,4.91,BR,1736376097
452,portland,45.5234,-122.6762,286.42,61,20,3.09,US,1736375830
453,malango,-2.9627,119.9001,292.74,96,90,1.27,ID,1736376099
454,shimanovsk,52.0,127.7,253.65,84,68,4.74,RU,1736376101
455,agat village,13.3886,144.6585,300.57,88,20,4.12,GU,1736376102
456,najran,17.4924,44.1277,285.17,40,48,1.89,SA,1736376104
457,veinticinco de mayo,-35.4323,-60.1727,303.7,36,45,1.34,AR,1736375848
458,eyl,7.9803,49.8164,296.51,74,74,6.96,SO,1736376106
459,general villegas,-35.0328,-63.0125,301.92,35,18,2.79,AR,1736375960
460,khandyga,62.6667,135.6,233.43,100,67,0.67,RU,1736376109
461,mount gambier,-37.8333,140.7667,294.1,67,100,2.4,AU,1736376110
462,miles city,46.4083,-105.8406,275.69,87,100,7.72,US,1736376111
463,port isabel,26.0734,-97.2086,282.17,70,100,9.77,US,1736376112
464,sinjar,36.3209,41.8754,281.91,50,16,1.43,IQ,1736376114
465,las khorey,11.1595,48.1967,295.09,69,1,1.95,SO,1736376115
466,narasannapeta,18.4167,84.05,290.78,75,0,2.82,IN,1736376116
467,xuanzhou,30.9525,118.7553,273.12,56,11,2.8,CN,1736376117
468,zaozersk,69.4005,32.4476,256.63,96,93,1.82,RU,1736376118
469,iskateley,67.6803,53.1512,255.97,92,100,6.69,RU,1736376119
470,dzhangala,49.2167,50.3333,271.59,72,20,6.52,KZ,1736376121
471,fale old settlement,-9.3852,-171.2468,301.08,73,100,8.96,TK,1736376122
472,kutum,14.2,24.6667,288.3,24,18,2.32,SD,1736376123
473,troitsk,54.0979,61.5773,269.8,79,100,8.95,RU,1736376124
474,saint croix,17.7397,-64.7388,299.4,80,100,2.57,VI,1736376125
475,suva,-18.1416,178.4415,299.86,78,75,4.63,FJ,1736376126
476,al ghayzah,16.2079,52.176,294.13,72,60,1.0,YE,1736376128
477,ataq,14.5377,46.8319,289.29,29,6,2.99,YE,1736376129
478,kourou,5.1552,-52.6478,297.33,81,80,2.78,GF,1736376130
479,bardai,11.65,7.2333,291.23,24,37,4.38,NG,1736376131
480,woods creek,47.8787,-121.8985,283.46,88,54,1.43,US,1736376132
481,severo-yeniseyskiy,60.3725,93.0408,263.53,91,100,3.0,RU,1736376133
482,lucapa,-8.4192,20.7447,291.2,97,91,1.42,AO,1736376135
483,loango,-4.6719,11.8312,298.93,87,99,3.42,CG,1736376136
484,pyt-yakh,60.7499,72.8582,246.54,100,99,0.87,RU,1736376137
485,crixas,-14.5489,-49.9692,295.86,94,100,2.17,BR,1736376138
486,faya-largeau,17.9257,19.1043,292.03,27,85,4.8,TD,1736376139
487,nabire,-3.3667,135.4833,298.86,90,84,1.2,ID,1736376142
488,castillos,-34.1667,-53.8333,290.8,76,0,2.94,UY,1736376143
489,taichung,24.1469,120.6839,289.32,78,75,7.72,TW,1736375947
490,murghob,38.1702,73.9667,243.75,83,13,1.5,TJ,1736376145
491,kill devil hills,36.0307,-75.676,274.25,54,0,3.6,US,1736376146
492,inari,68.906,27.0288,251.63,100,100,1.02,FI,1736376148
493,bestobe,52.4994,73.0975,262.14,93,100,10.38,KZ,1736376149
494,kharan,28.5833,65.4167,281.27,34,15,0.39,PK,1736376150
495,taro,-8.3862,115.28,293.77,96,100,0.21,ID,1736376151
496,al bawiti,28.3492,28.8659,284.38,52,9,0.79,EG,1736376152
497,sarmiento,-45.5882,-69.07,293.48,27,39,14.81,AR,1736376153
498,iranshahr,27.2025,60.6848,285.93,23,85,0.89,IR,1736376155
499,isla del bosque,22.7333,-105.85,292.65,89,100,6.38,MX,1736376156
500,rawson,-43.3002,-65.1023,305.31,31,0,5.66,AR,1736376157
501,poronaysk,49.2167,143.1167,272.31,89,100,7.99,RU,1736376158
502,menaka,15.9182,2.4022,294.65,15,90,5.03,ML,1736376159
503,barrouallie,13.2333,-61.2667,297.94,78,40,4.12,VC,1736376160
504,barah,13.7,30.3667,291.02,25,5,3.83,SD,1736376161
505,myaydo,19.3667,95.2167,288.4,71,6,1.34,MM,1736376164
506,jining,35.405,116.5814,267.59,31,0,2.83,CN,1736376165
507,fengcheng,40.4536,124.0717,258.29,43,0,4.75,CN,1736376166
508,whakatane,-37.9585,176.9854,293.43,67,21,2.24,NZ,1736376167
509,bangassou,4.7413,22.8184,294.88,34,74,1.15,CF,1736376168
510,lakehills,29.6047,-98.9431,278.18,44,100,2.98,US,1736376170
511,uvira,-3.4067,29.1458,295.55,82,85,1.4,CD,1736376171
512,chicoana,-25.1009,-65.5331,296.18,70,47,1.19,AR,1736376172
513,kindu,-2.95,25.95,294.22,97,95,1.09,CD,1736376173
514,onguday,50.75,86.15,258.5,96,75,0.94,RU,1736376174
515,moranbah,-22.0016,148.0466,299.64,53,0,0.94,AU,1736376175
516,fort-shevchenko,44.5086,50.263,275.64,71,2,11.86,KZ,1736376176
517,chinde,26.8212,87.7095,284.42,79,3,2.11,NP,1736376179
518,troitskaya,43.3056,44.9789,277.9,62,0,1.82,RU,1736376180
519,siwa oasis,29.2041,25.5195,286.96,75,0,2.28,EG,1736376181
520,shihezi,44.3,86.0333,269.37,97,100,1.77,CN,1736376182
521,nueva gerona,21.8833,-82.8,293.68,64,4,6.74,CU,1736376183
522,taltal,-25.4,-70.4833,293.58,79,32,3.22,CL,1736376020
523,kukawa,12.9234,13.5606,293.32,50,12,4.8,NG,1736376186
524,road town,18.4167,-64.6167,301.17,65,20,1.03,VG,1736376187
525,maumere,-8.6199,122.2111,300.33,80,100,0.36,ID,1736376189
526,nadym,65.5333,72.5167,245.36,100,93,1.56,RU,1736376192
527,koulikoro,14.0,-7.75,295.29,21,99,3.45,ML,1736376193
528,mariental,-24.6333,17.9667,300.44,14,85,3.72,NA,1736376194
529,tilcara,-23.5776,-65.3509,283.92,93,98,3.13,AR,1736375931
530,marsh harbour,26.5412,-77.0636,292.19,62,93,2.61,BS,1736376196
531,anzio,41.4853,12.6179,285.62,81,16,7.17,IT,1736376197
532,ubinskoye,55.3068,79.6802,253.4,96,23,4.22,RU,1736376198
533,chittaurgarh,24.8833,74.6333,282.97,36,7,0.57,IN,1736376200
534,nykobing sjaelland,55.9249,11.6711,277.01,84,35,9.2,DK,1736376201
535,kuta,-8.7233,115.1723,298.12,94,40,1.54,ID,1736376203
536,turochak,52.2576,87.1224,268.23,95,100,2.13,RU,1736376204
537,maraba,-5.3686,-49.1178,300.25,74,100,3.6,BR,1736376048
538,ginir,7.1333,40.7,287.78,49,0,2.36,ET,1736376207
539,carutapera,-1.195,-46.02,297.42,94,100,2.34,BR,1736376208
540,vandavasi,12.5,79.6167,292.71,85,11,3.54,IN,1736376209
541,sougueur,35.1857,1.4961,278.22,65,0,2.06,DZ,1736376210
542,cavelossim,15.1726,73.9419,296.14,48,43,3.02,IN,1736376211
543,kuressaare,58.2481,22.5039,274.79,100,100,8.23,EE,1736376212
544,starkville,33.4504,-88.8184,276.96,44,0,2.57,US,1736376213
545,oranjemund,-28.55,16.4333,289.26,93,0,3.07,NA,1736376215
546,pedernales,18.0384,-71.744,298.99,74,39,1.19,DO,1736376216
547,perleberg,53.0667,11.8667,274.18,88,71,2.25,DE,1736376217
548,arkhangel'sk,64.5401,40.5433,264.21,92,100,6.0,RU,1736376218
